{
    "results":
    [
        {
            "address_components":[
                {"long_name":"C-15","short_name":"C-15","types":["premise"]},
                {"long_name":"Model Town III","short_name":"Model Town III","types":["neighborhood","political"]},
                {"long_name":"Pocket C","short_name":"Pocket C","types":["political","sublocality","sublocality_level_3"]},
                {"long_name":"Phase 3","short_name":"Phase 3","types":["political","sublocality","sublocality_level_2"]},
                {"long_name":"Model Town","short_name":"Model Town","types":["political","sublocality","sublocality_level_1"]},
                {"long_name":"Delhi","short_name":"Delhi","types":["locality","political"]},
                {"long_name":"North West Delhi","short_name":"North West Delhi","types":["administrative_area_level_2","political"]},
                {"long_name":"Delhi","short_name":"DL","types":["administrative_area_level_1","political"]},
                {"long_name":"India","short_name":"IN","types":["country","political"]},
                {"long_name":"110009","short_name":"110009","types":["postal_code"]}
            ],
                "formatted_address":"C-15, Model Town III, Pocket C, Phase 3, Model Town, Delhi, 110009, India",
                "geometry":{"location":{"lat":28.709521,"lng":77.1840689},
                "location_type":"ROOFTOP",
                "viewport":{"northeast":{"lat":28.71086998029149,"lng":77.18541788029151},
                "southwest":{"lat":28.7081720197085,"lng":77.1827199197085}}},
                "place_id":"ChIJaWFz3AICDTkR4O1oWDHFVfs","types":["street_address"]
            },
                {
                    "address_components":[{"long_name":"Unnamed Road","short_name":"Unnamed Road","types":["route"]},{"long_name":"Model Town III","short_name":"Model Town III","types":["neighborhood","political"]},{"long_name":"Pocket C","short_name":"Pocket C","types":["political","sublocality","sublocality_level_3"]},{"long_name":"Phase 3","short_name":"Phase 3","types":["political","sublocality","sublocality_level_2"]},{"long_name":"Model Town","short_name":"Model Town","types":["political","sublocality","sublocality_level_1"]},{"long_name":"Delhi","short_name":"Delhi","types":["locality","political"]},{"long_name":"North West Delhi","short_name":"North West Delhi","types":["administrative_area_level_2","political"]},{"long_name":"Delhi","short_name":"DL","types":["administrative_area_level_1","political"]},{"long_name":"India","short_name":"IN","types":["country","political"]},{"long_name":"110009","short_name":"110009","types":["postal_code"]}],"formatted_address":"Unnamed Road, Model Town III, Pocket C, Phase 3, Model Town, Delhi, 110009, India","geometry":{"bounds":{"northeast":{"lat":28.7097261,"lng":77.1844084},"southwest":{"lat":28.7090192,"lng":77.1840721}},"location":{"lat":28.7093726,"lng":77.18424019999999},"location_type":"GEOMETRIC_CENTER","viewport":{"northeast":{"lat":28.7107216302915,"lng":77.18558923029151},"southwest":{"lat":28.7080236697085,"lng":77.18289126970849}}},"place_id":"ChIJoXWm3gICDTkREOcPWlMrVkk","types":["route"]},{"address_components":[{"long_name":"Pocket C","short_name":"Pocket C","types":["political","sublocality","sublocality_level_3"]},{"long_name":"Model Town III","short_name":"Model Town III","types":["neighborhood","political"]},{"long_name":"Phase 3","short_name":"Phase 3","types":["political","sublocality","sublocality_level_2"]},{"long_name":"Model Town","short_name":"Model Town","types":["political","sublocality","sublocality_level_1"]},{"long_name":"Delhi","short_name":"Delhi","types":["locality","political"]},{"long_name":"North West Delhi","short_name":"North West Delhi","types":["administrative_area_level_2","political"]},{"long_name":"Delhi","short_name":"DL","types":["administrative_area_level_1","political"]},{"long_name":"India","short_name":"IN","types":["country","political"]},{"long_name":"110009","short_name":"110009","types":["postal_code"]}],"formatted_address":"Model Town III, Pocket C, Phase 3, Model Town, Delhi, 110009, India","geometry":{"bounds":{"northeast":{"lat":28.7101159,"lng":77.185586},"southwest":{"lat":28.708155,"lng":77.183765}},"location":{"lat":28.7094683,"lng":77.1848213},"location_type":"APPROXIMATE","viewport":{"northeast":{"lat":28.7104844302915,"lng":77.18602448029151},"southwest":{"lat":28.7077864697085,"lng":77.18332651970849}}},"place_id":"ChIJRTXQ4QICDTkRKB_uHZj7AEk","types":["political","sublocality","sublocality_level_3"]},{"address_components":[{"long_name":"Model Town III","short_name":"Model Town III","types":["neighborhood","political"]},{"long_name":"Pocket C 2","short_name":"Pocket C 2","types":["political","sublocality","sublocality_level_3"]},{"long_name":"Phase 3","short_name":"Phase 3","types":["political","sublocality","sublocality_level_2"]},{"long_name":"Azadpur","short_name":"Azadpur","types":["political","sublocality","sublocality_level_1"]},{"long_name":"New Delhi","short_name":"New Delhi","types":["locality","political"]},{"long_name":"North West Delhi","short_name":"North West Delhi","types":["administrative_area_level_2","political"]},{"long_name":"Delhi","short_name":"DL","types":["administrative_area_level_1","political"]},{"long_name":"India","short_name":"IN","types":["country","political"]},{"long_name":"110009","short_name":"110009","types":["postal_code"]}],"formatted_address":"Model Town III, Pocket C 2, Phase 3, Azadpur, New Delhi, Delhi 110009, India","geometry":{"bounds":{"northeast":{"lat":28.711186,"lng":77.1859989},"southwest":{"lat":28.7075862,"lng":77.1825602}},"location":{"lat":28.7091426,"lng":77.1845642},"location_type":"APPROXIMATE","viewport":{"northeast":{"lat":28.711186,"lng":77.1859989},"southwest":{"lat":28.7075862,"lng":77.1825602}}},"place_id":"ChIJD9WnKAMCDTkRRHK2uFpl8WM","types":["neighborhood","political"]},{"address_components":[{"long_name":"Phase 3","short_name":"Phase 3","types":["political","sublocality","sublocality_level_2"]},{"long_name":"Model Town","short_name":"Model Town","types":["political","sublocality","sublocality_level_1"]},{"long_name":"Delhi","short_name":"Delhi","types":["locality","political"]},{"long_name":"North West Delhi","short_name":"North West Delhi","types":["administrative_area_level_2","political"]},{"long_name":"Delhi","short_name":"DL","types":["administrative_area_level_1","political"]},{"long_name":"India","short_name":"IN","types":["country","political"]},{"long_name":"110009","short_name":"110009","types":["postal_code"]}],"formatted_address":"Phase 3, Model Town, Delhi, 110009, India","geometry":{"bounds":{"northeast":{"lat":28.715395,"lng":77.1874741},"southwest":{"lat":28.7058191,"lng":77.180919}},"location":{"lat":28.7102774,"lng":77.1849103},"location_type":"APPROXIMATE","viewport":{"northeast":{"lat":28.715395,"lng":77.1874741},"southwest":{"lat":28.7058191,"lng":77.180919}}},"place_id":"ChIJ_REgvAICDTkRG0dU2aPTNfg","types":["political","sublocality","sublocality_level_2"]},{"address_components":[{"long_name":"Azadpur","short_name":"Azadpur","types":["political","sublocality","sublocality_level_1"]},{"long_name":"New Delhi","short_name":"New Delhi","types":["locality","political"]},{"long_name":"North West Delhi","short_name":"North West Delhi","types":["administrative_area_level_2","political"]},{"long_name":"Delhi","short_name":"DL","types":["administrative_area_level_1","political"]},{"long_name":"India","short_name":"IN","types":["country","political"]}],"formatted_address":"Azadpur, New Delhi, Delhi, India","geometry":{"bounds":{"northeast":{"lat":28.7204279,"lng":77.187646},"southwest":{"lat":28.705069,"lng":77.1643191}},"location":{"lat":28.7102951,"lng":77.1752448},"location_type":"APPROXIMATE","viewport":{"northeast":{"lat":28.7204279,"lng":77.187646},"southwest":{"lat":28.705069,"lng":77.1643191}}},"place_id":"ChIJVZNqxx8CDTkRvR8klLqWbyE","types":["political","sublocality","sublocality_level_1"]},{"address_components":[{"long_name":"110009","short_name":"110009","types":["postal_code"]},{"long_name":"New Delhi","short_name":"New Delhi","types":["locality","political"]},{"long_name":"Delhi","short_name":"DL","types":["administrative_area_level_1","political"]},{"long_name":"India","short_name":"IN","types":["country","political"]}],"formatted_address":"New Delhi, Delhi 110009, India","geometry":{"bounds":{"northeast":{"lat":28.7293568,"lng":77.22809900000001},"southwest":{"lat":28.6872275,"lng":77.17627619999999}},"location":{"lat":28.7108654,"lng":77.20314929999999},"location_type":"APPROXIMATE","viewport":{"northeast":{"lat":28.7293568,"lng":77.22809900000001},"southwest":{"lat":28.6872275,"lng":77.17627619999999}}},"place_id":"ChIJYwsLzwcCDTkRjB9aAJzC2r0","types":["postal_code"]},{"address_components":[{"long_name":"North Delhi","short_name":"North Delhi","types":["administrative_area_level_2","political"]},{"long_name":"Delhi","short_name":"Delhi","types":["locality","political"]},{"long_name":"Delhi","short_name":"DL","types":["administrative_area_level_1","political"]},{"long_name":"India","short_name":"IN","types":["country","political"]}],"formatted_address":"North Delhi, Delhi, India","geometry":{"bounds":{"northeast":{"lat":28.88284,"lng":77.22537000000001},"southwest":{"lat":28.68707,"lng":76.96522999999999}},"location":{"lat":28.7886037,"lng":77.1411602},"location_type":"APPROXIMATE","viewport":{"northeast":{"lat":28.88284,"lng":77.22537000000001},"southwest":{"lat":28.68707,"lng":76.96522999999999}}},"place_id":"ChIJGUxW3-P9DDkRoYvP_3M9upo","types":["administrative_area_level_2","political"]},{"address_components":[{"long_name":"Delhi","short_name":"Delhi","types":["locality","political"]},{"long_name":"Delhi","short_name":"DL","types":["administrative_area_level_1","political"]},{"long_name":"India","short_name":"IN","types":["country","political"]}],"formatted_address":"Delhi, India","geometry":{"bounds":{"northeast":{"lat":28.88284,"lng":77.34488},"southwest":{"lat":28.50197,"lng":76.8378199}},"location":{"lat":28.6862738,"lng":77.2217831},"location_type":"APPROXIMATE","viewport":{"northeast":{"lat":28.88284,"lng":77.34488},"southwest":{"lat":28.50197,"lng":76.8378199}}},"place_id":"ChIJL_P_CXMEDTkRw0ZdG-0GVvw","types":["locality","political"]},{"address_components":[{"long_name":"Delhi","short_name":"Delhi","types":["administrative_area_level_1","locality","political"]},{"long_name":"India","short_name":"IN","types":["country","political"]}],"formatted_address":"Delhi, India","geometry":{"bounds":{"northeast":{"lat":28.881338,"lng":77.3484578},"southwest":{"lat":28.412593,"lng":76.83806899999999}},"location":{"lat":28.7040592,"lng":77.10249019999999},"location_type":"APPROXIMATE","viewport":{"northeast":{"lat":28.881338,"lng":77.3484578},"southwest":{"lat":28.412593,"lng":76.83806899999999}}},"place_id":"ChIJLbZ-NFv9DDkRQJY4FbcFcgM","types":["administrative_area_level_1","locality","political"]},{"address_components":[{"long_name":"India","short_name":"IN","types":["country","political"]}],"formatted_address":"India","geometry":{"bounds":{"northeast":{"lat":35.513327,"lng":97.39535869999999},"southwest":{"lat":6.4626999,"lng":68.1097}},"location":{"lat":20.593684,"lng":78.96288},"location_type":"APPROXIMATE","viewport":{"northeast":{"lat":35.513327,"lng":97.39535869999999},"southwest":{"lat":6.4626999,"lng":68.1097}}},
                "place_id":"ChIJkbeSa_BfYzARphNChaFPjNc",
                "types":["country","political"]}],
                "status":"OK"
            }